# Time (s),Altitude (m),Vertical velocity (m/s),Vertical acceleration (m/s²),Total velocity (m/s),Total acceleration (m/s²),Position East of launch (m),Position North of launch (m),Lateral distance (m),Lateral direction (°),Lateral velocity (m/s),Lateral acceleration (m/s²),Latitude (°),Longitude (°),Gravitational acceleration (m/s²),Angle of attack (°),Roll rate (°/s),Pitch rate (°/s),Yaw rate (°/s),Mass (g),Propellant mass (g),Longitudinal moment of inertia (kg·m²),Rotational moment of inertia (kg·m²),CP location (mm),CG location (mm),Stability margin calibers (?),Mach number (?),Reynolds number (?),Thrust (N),Drag force (N),Drag coefficient (?),Axial drag coefficient (?),Friction drag coefficient (?),Pressure drag coefficient (?),Base drag coefficient (?),Normal force coefficient (?),Pitch moment coefficient (?),Yaw moment coefficient (?),Side force coefficient (?),Roll moment coefficient (?),Roll forcing coefficient (?),Roll damping coefficient (?),Pitch damping coefficient (?),Reference length (mm),Reference area (cm²),Vertical orientation (zenith) (°),Lateral orientation (azimuth) (°),Wind velocity (m/s),Air temperature (°C),Air pressure (mbar),Speed of sound (m/s),Simulation time step (s),Computation time (s)
0,0,0,-8.336,0,8.336,0,0,0,0,0,0,45,0,9.8062,90,0,0,0,12207,2521.3,5.7227,0.0369,NaN,1630.6,NaN,0.0061118,380433,17.946,0,0.70434,0,0.51919,0.065148,0.12,NaN,NaN,NaN,NaN,NaN,NaN,NaN,NaN,140,153.94,90,0,NaN,15,1013.2,340.39,0.01,0.0042174
0.01,0,0,-5.3955,0,5.3955,0,0,0,0,0,0,45,0,9.8062,90,0,0,0,12207,2521.3,5.7227,0.0369,NaN,1630.6,NaN,0.0059769,372037,53.839,0,0.70689,0,0.52174,0.065148,0.12,NaN,NaN,NaN,NaN,NaN,NaN,NaN,NaN,140,153.94,90,0,NaN,15,1013.2,340.39,0.01,0.0049945
0.02,0,0,-2.454,0,2.454,0,0,0,0,0,0,45,0,9.8062,90,0,0,0,12205,2519.4,5.7221,0.036899,NaN,1630.5,NaN,0.005842,363642,89.731,0,0.70952,0,0.52437,0.065148,0.12,NaN,NaN,NaN,NaN,NaN,NaN,NaN,NaN,140,153.94,90,0,NaN,15,1013.2,340.39,0.01,0.0055746
0.03,0,0,0.48853,0,0.48853,0,0,0,0,0,0,45,0,9.8062,90,0,0,0,12203,2517.5,5.7215,0.036897,NaN,1630.4,NaN,0.0057072,355246,125.62,0,0.71223,0,0.52708,0.065148,0.12,NaN,NaN,NaN,NaN,NaN,NaN,NaN,NaN,140,153.94,90,0,NaN,15,1013.2,340.39,0.01,0.0061433
0.04,2.4479e-5,0.0048985,3.4319,0.0048985,3.4319,0,0,0,0,0,0,45,0,9.8062,89.852,0,0,0,12201,2515.7,5.7209,0.036896,NaN,1630.4,NaN,0.0055723,346852,161.52,0,0.71503,3.0919e-8,0.52988,0.065148,0.12,NaN,NaN,NaN,NaN,NaN,NaN,NaN,NaN,140,153.94,90,0,NaN,15,1013.2,340.39,0.01,0.0066682
0.05,2.4513e-4,0.039235,6.3762,0.039235,6.3762,0,0,0,0,0,0,45,0,9.8062,88.786,0,0,0,12199,2513.8,5.7203,0.036895,NaN,1630.3,NaN,0.0054386,338531,197.41,5.4841e-7,0.71789,1.6972e-5,0.53274,0.065148,0.12,NaN,NaN,NaN,NaN,NaN,NaN,NaN,NaN,140,153.94,90,0,NaN,15,1013.2,340.39,0.01,0.0079569
0.06,9.5637e-4,0.10302,9.3214,0.10302,9.3214,0,0,0,0,0,0,45,0,9.8062,86.774,0,0,0,12197,2511.9,5.7197,0.036893,NaN,1630.3,NaN,0.0053778,334743,233.3,9.8611e-6,0.71923,3.1212e-4,0.53407,0.065148,0.12,NaN,NaN,NaN,NaN,NaN,NaN,NaN,NaN,140,153.94,90,0,NaN,15,1013.2,340.39,0.01,0.0099454
0.07,0.0024527,0.19626,12.268,0.19626,12.268,0,0,0,0,0,0,45,0,9.8062,83.793,0,0,0,12195,2510,5.7191,0.036892,NaN,1630.2,NaN,0.0053323,331916,269.19,6.6963e-5,0.72023,0.0021557,0.53508,0.065148,0.12,NaN,NaN,NaN,NaN,NaN,NaN,NaN,NaN,140,153.94,90,0,NaN,15,1013.2,340.39,0.01,0.010632
0.08,0.0050288,0.31896,15.215,0.31896,15.215,0,0,0,0,0,0,45,0,9.8062,79.848,0,0,0,12193,2508.1,5.7185,0.036891,NaN,1630.1,NaN,0.0053162,330908,305.09,2.7872e-4,0.7206,0.0090275,0.53545,0.065148,0.12,NaN,NaN,NaN,NaN,NaN,NaN,NaN,NaN,140,153.94,90,0,NaN,15,1013.2,340.39,0.01,0.011231
0.09,0.0089792,0.47114,18.162,0.47114,18.162,0,0,0,0,0,0,45,0,9.8062,74.998,0,0,0,12191,2506.3,5.7179,0.036889,NaN,1630.1,NaN,0.005347,332829,340.98,8.5844e-4,0.71991,0.027484,0.53476,0.065148,0.12,NaN,NaN,NaN,NaN,NaN,NaN,NaN,NaN,140,153.94,90,0,NaN,15,1013.2,340.39,0.01,0.011713
0.1,0.014599,0.6528,21.111,0.6528,21.111,0,0,0,0,0,0,45,0,9.8062,69.379,0,0,0,12190,2504.4,5.7172,0.036888,NaN,1630,NaN,0.0054455,338958,376.87,0.0021478,0.71774,0.066301,0.53259,0.065148,0.12,NaN,NaN,NaN,NaN,NaN,NaN,NaN,NaN,140,153.94,90,0,NaN,15,1013.2,340.39,0.01,0.012204
0.11,0.022183,0.86395,24.061,0.86395,24.061,0,0,0,0,0,0,45,0,9.8062,63.507,0,0,0,12188,2502.5,5.7166,0.036887,NaN,1629.9,NaN,0.0056897,354156,412.76,0.004559,0.71259,0.12891,0.52744,0.065148,0.12,NaN,NaN,NaN,NaN,NaN,NaN,NaN,NaN,140,153.94,90,0,NaN,15,1013.2,340.39,0.01,0.012967
0.12,0.032025,1.1046,27.011,1.1046,27.011,0,0,0,0,0,0,45,0,9.8062,57.469,0,0,0,12186,2500.6,5.716,0.036885,NaN,1629.9,NaN,0.0060345,375623,448.66,0.0086024,0.70579,0.21624,0.52064,0.065148,0.12,NaN,NaN,NaN,NaN,NaN,NaN,NaN,NaN,140,153.94,90,0,NaN,15,1013.2,340.39,0.01,0.015494
0.13,0.044422,1.3747,29.962,1.3747,29.962,0,0,0,0,0,0,45,0,9.8062,51.532,0,0,0,12184,2498.8,5.7154,0.036884,NaN,1629.8,NaN,0.0064924,404123,484.55,0.014781,0.69753,0.32099,0.51237,0.065149,0.12001,NaN,NaN,NaN,NaN,NaN,NaN,NaN,NaN,140,153.94,90,0,NaN,15,1013.2,340.39,0.01,0.016181
0.14,0.059668,1.6744,32.914,1.6744,32.914,0,0,0,0,0,0,45,0,9.8062,45.915,0,0,0,12182,2496.9,5.7148,0.036883,NaN,1629.8,NaN,0.0070705,440108,520.44,0.023546,0.68813,0.43114,0.50298,0.065149,0.12001,NaN,NaN,NaN,NaN,NaN,NaN,NaN,NaN,140,153.94,90,0,NaN,15,1013.2,340.39,0.01,0.016773
0.15,0.078058,2.0036,35.866,2.0036,35.866,0,0,0,0,0,0,45,0,9.8062,40.764,0,0,0,12180,2495,5.7142,0.036881,NaN,1629.7,NaN,0.0077716,483743,556.33,0.03527,0.67802,0.53455,0.49286,0.06515,0.12001,NaN,NaN,NaN,NaN,NaN,NaN,NaN,NaN,140,153.94,90,0,NaN,14.999,1013.2,340.39,0.01,0.017244
0.16,0.099887,2.3623,38.819,2.3623,38.819,0,0,0,0,0,0,45,0,9.8062,36.16,0,0,0,12178,2493.1,5.7136,0.03688,NaN,1629.6,NaN,0.0085958,535050,592.23,0.050233,0.66757,0.62232,0.48241,0.065151,0.12001,NaN,NaN,NaN,NaN,NaN,NaN,NaN,NaN,140,153.94,90,0,NaN,14.999,1013.2,340.39,0.01,0.017694
0.17,0.12545,2.7506,41.773,2.7506,41.773,0,0,0,0,0,0,45,0,9.8062,32.102,0,0,0,12176,2491.2,5.713,0.036879,NaN,1629.6,NaN,0.0095392,593766,628.12,0.068662,0.65712,0.69071,0.47196,0.065153,0.12001,NaN,NaN,NaN,NaN,NaN,NaN,NaN,NaN,140,153.94,90,0,NaN,14.999,1013.2,340.39,0.01,0.018142
0.18,0.15505,3.1684,44.727,3.1684,44.727,0,0,0,0,0,0,45,0,9.8062,28.562,0,0,0,12175,2489.4,5.7124,0.036877,NaN,1629.5,NaN,0.010598,659658,664.01,0.090739,0.64691,0.73955,0.46174,0.065154,0.12001,NaN,NaN,NaN,NaN,NaN,NaN,NaN,NaN,140,153.94,90,0,NaN,14.999,1013.2,340.39,0.01,0.018587
0.19,0.18897,3.6157,46.47,3.6157,46.47,0,0,0,0,0,0,45,0,9.8062,25.49,0,0,0,12173,2487.5,5.7118,0.036876,NaN,1629.5,NaN,0.011768,732480,685.15,0.11663,0.63707,0.77094,0.45189,0.065156,0.12002,NaN,NaN,NaN,NaN,NaN,NaN,NaN,NaN,140,153.94,90,0,NaN,14.999,1013.2,340.39,0.01,0.019013
0.2,0.22745,4.0805,46.452,4.0805,46.452,0,0,0,0,0,0,45,0,9.8062,22.892,0,0,0,12170,2484.8,5.7109,0.036874,NaN,1629.4,NaN,0.013013,809964,684.8,0.14571,0.62791,0.78771,0.44273,0.065159,0.12002,NaN,NaN,NaN,NaN,NaN,NaN,NaN,NaN,140,153.94,90,0,NaN,14.999,1013.2,340.39,0.01,0.019441
0.21,0.27058,4.5451,46.422,4.5451,46.422,0,0,0,0,0,0,45,0,9.8062,20.774,0,0,0,12166,2481.2,5.7098,0.036872,NaN,1629.2,NaN,0.014281,888924,684.27,0.17681,0.61969,0.79356,0.4345,0.065161,0.12003,NaN,NaN,NaN,NaN,NaN,NaN,NaN,NaN,140,153.94,90,0,NaN,14.998,1013.2,340.39,0.01,0.020052
0.22,0.31835,5.0095,46.393,5.0095,46.393,0,0,0,0,0,0,45,0,9.8062,19.004,0,0,0,12163,2477.5,5.7086,0.036869,NaN,1629.1,NaN,0.015565,968848,683.74,0.20975,0.61229,0.7925,0.42709,0.065164,0.12003,NaN,NaN,NaN,NaN,NaN,NaN,NaN,NaN,140,153.94,90,0,NaN,14.998,1013.2,340.39,0.01,0.020548
0.23,0.37076,5.4735,46.363,5.4735,46.363,0,0,0,0,0,0,45,0,9.8062,17.506,0,0,0,12159,2473.8,5.7074,0.036867,NaN,1629,NaN,0.016861,1049504,683.21,0.24443,0.60558,0.78703,0.42037,0.065168,0.12004,NaN,NaN,NaN,NaN,NaN,NaN,NaN,NaN,140,153.94,90,0,NaN,14.998,1013.2,340.39,0.01,0.02099
0.24,0.42782,5.9373,46.334,5.9373,46.334,0,0,0,0,0,0,45,0,9.8062,16.223,0,0,0,12155,2470.1,5.7062,0.036864,NaN,1628.9,NaN,0.018166,1130721,682.68,0.28055,0.59947,0.77821,0.41425,0.065171,0.12004,NaN,NaN,NaN,NaN,NaN,NaN,NaN,NaN,140,153.94,90,0,NaN,14.997,1013.2,340.39,0.01,0.021464
0.25,0.48951,6.4008,46.304,6.4008,46.304,0,0,0,0,0,0,45,0,9.8062,15.114,0,0,0,12152,2466.4,5.705,0.036861,NaN,1628.8,NaN,0.019478,1212375,682.14,0.31744,0.59387,0.76594,0.40865,0.065175,0.12005,NaN,NaN,NaN,NaN,NaN,NaN,NaN,NaN,140,153.94,90,0,NaN,14.997,1013.2,340.39,0.01,0.021901
0.26,0.55583,6.8639,46.274,6.8639,46.274,0,0,0,0,0,0,45,0,9.8062,14.146,0,0,0,12148,2462.7,5.7038,0.036859,NaN,1628.6,NaN,0.020796,1294376,681.61,0.35529,0.58872,0.75207,0.40349,0.065179,0.12006,NaN,NaN,NaN,NaN,NaN,NaN,NaN,NaN,140,153.94,90,0,NaN,14.996,1013.2,340.39,0.01,0.022475
0.27,0.62678,7.3268,46.244,7.3268,46.244,0,0,0,0,0,0,45,0,9.8062,13.293,0,0,0,12144,2459,5.7026,0.036856,NaN,1628.5,NaN,0.022118,1376647,681.08,0.39426,0.58397,0.7378,0.39872,0.065183,0.12006,NaN,NaN,NaN,NaN,NaN,NaN,NaN,NaN,140,153.94,90,0,NaN,14.996,1013.2,340.39,0.01,0.022914
0.28,0.70236,7.7894,46.214,7.7894,46.214,0,0,0,0,0,0,45,0,9.8062,12.538,0,0,0,12140,2455.3,5.7014,0.036853,NaN,1628.4,NaN,0.023443,1459134,680.55,0.43451,0.57955,0.72377,0.39429,0.065188,0.12007,NaN,NaN,NaN,NaN,NaN,NaN,NaN,NaN,140,153.94,90,0,NaN,14.995,1013.2,340.39,0.01,0.023321
0.29,0.78257,8.2516,46.184,8.2516,46.184,0,0,0,0,0,0,45,0,9.8062,11.864,0,0,0,12137,2451.6,5.7002,0.036851,NaN,1628.3,NaN,0.024771,1541792,680.01,0.47612,0.57544,0.71033,0.39017,0.065193,0.12008,NaN,NaN,NaN,NaN,NaN,NaN,NaN,NaN,140,153.94,90,0,NaN,14.995,1013.2,340.39,0.01,0.023732
0.3,0.8674,8.7136,46.154,8.7136,46.154,0,0,0,0,0,0,45,0,9.8062,11.259,0,0,0,12133,2447.9,5.699,0.036848,NaN,1628.1,NaN,0.026102,1624585,679.48,0.51917,0.5716,0.69762,0.38631,0.065198,0.12009,NaN,NaN,NaN,NaN,NaN,NaN,NaN,NaN,140,153.94,90,0,NaN,14.994,1013.1,340.39,0.01,0.02639
0.31,0.95684,9.1752,46.123,9.1752,46.123,0,0,0,0,0,0,45,0,9.8062,10.722,0,0,0,12129,2444.2,5.6978,0.036846,NaN,1628,NaN,0.027434,1707534,678.95,0.56386,0.568,0.68584,0.3827,0.065204,0.1201,NaN,NaN,NaN,NaN,NaN,NaN,NaN,NaN,140,153.94,90,0,NaN,14.994,1013.1,340.39,0.01,0.027352
0.32,1.0509,9.6366,46.092,9.6366,46.092,0,0,0,0,0,0,45,0,9.8062,10.235,0,0,0,12126,2440.5,5.6966,0.036843,NaN,1627.9,NaN,0.028769,1790562,678.42,0.61011,0.56461,0.67487,0.37929,0.06521,0.12011,NaN,NaN,NaN,NaN,NaN,NaN,NaN,NaN,140,153.94,90,0,NaN,14.993,1013.1,340.38,0.01,0.02901
0.33,1.1496,10.098,46.062,10.098,46.062,0,0,0,0,0,0,45,0,9.8062,9.7911,0,0,0,12122,2436.8,5.6954,0.03684,NaN,1627.8,NaN,0.030104,1873651,677.89,0.65795,0.56142,0.66467,0.37608,0.065216,0.12012,NaN,NaN,NaN,NaN,NaN,NaN,NaN,NaN,140,153.94,90,0,NaN,14.993,1013.1,340.38,0.01,0.029582
0.34,1.2528,10.558,46.031,10.558,46.031,0,0,0,0,0,0,45,0,9.8062,9.3854,0,0,0,12118,2433.1,5.6942,0.036838,NaN,1627.6,NaN,0.03144,1956786,677.35,0.70742,0.5584,0.6552,0.37305,0.065222,0.12013,NaN,NaN,NaN,NaN,NaN,NaN,NaN,NaN,140,153.94,90,0,NaN,14.992,1013.1,340.38,0.01,0.030154
0.35,1.3607,11.019,46,11.019,46,0,0,0,0,0,0,45,0,9.8062,9.0131,0,0,0,12115,2429.4,5.693,0.036835,NaN,1627.5,NaN,0.032776,2.04e6,676.82,0.75852,0.55554,0.64641,0.37018,0.065229,0.12014,NaN,NaN,NaN,NaN,NaN,NaN,NaN,NaN,140,153.94,90,0,NaN,14.991,1013.1,340.38,0.01,0.030727
0.36,1.4732,11.479,45.968,11.479,45.968,0,0,0,0,0,0,45,0,9.8062,8.7107,0,0,0,12111,2425.6,5.6918,0.036833,NaN,1627.4,NaN,0.034117,2123370,676.29,0.81219,0.55283,0.63883,0.36744,0.065236,0.12015,NaN,NaN,NaN,NaN,NaN,NaN,NaN,NaN,140,153.94,90,0,NaN,14.99,1013.1,340.38,0.01,0.031348
0.37,1.5903,11.939,45.937,11.939,45.937,0,0,0,0,0,0,45,0,9.8062,8.4315,0,0,0,12107,2421.9,5.6906,0.03683,NaN,1627.3,NaN,0.035458,2206783,675.76,0.86758,0.55024,0.63178,0.36484,0.065243,0.12016,NaN,NaN,NaN,NaN,NaN,NaN,NaN,NaN,140,153.94,90,0,NaN,14.99,1013.1,340.38,0.01,0.031964
0.38,1.712,12.398,45.905,12.398,45.905,0,0,0,0,0,0,45,0,9.8062,8.1728,0,0,0,12103,2418.2,5.6894,0.036827,NaN,1627.2,NaN,0.036798,2290185,675.23,0.92785,0.54966,0.62735,0.36423,0.06525,0.12018,NaN,NaN,NaN,NaN,NaN,NaN,NaN,NaN,140,153.94,90,0,NaN,14.989,1013,340.38,0.01,0.032482
0.39,1.8383,12.857,45.873,12.857,45.873,0,0,0,0,0,0,45,0,9.8062,7.9325,0,0,0,12100,2414.5,5.6882,0.036825,NaN,1627,NaN,0.038138,2373571,674.69,0.99114,0.54968,0.62388,0.36423,0.065258,0.12019,NaN,NaN,NaN,NaN,NaN,NaN,NaN,NaN,140,153.94,90,0,NaN,14.988,1013,340.38,0.01,0.032972
0.4,1.9691,13.316,45.841,13.316,45.841,0,0,0,0,0,0,45,0,9.8062,7.7087,0,0,0,12096,2410.8,5.687,0.036822,NaN,1626.9,NaN,0.039478,2456934,674.16,1.0565,0.54969,0.62067,0.36422,0.065266,0.1202,NaN,NaN,NaN,NaN,NaN,NaN,NaN,NaN,140,153.94,90,0,NaN,14.987,1013,340.38,0.01,0.03342
0.41,2.1046,13.775,45.808,13.775,45.808,0,0,0,0,0,0,45,0,9.8062,7.3867,0,0,0,12092,2407.1,5.6858,0.03682,NaN,1626.8,NaN,0.040807,2539617,673.63,1.1205,0.54971,0.61606,0.36422,0.065274,0.12022,NaN,NaN,NaN,NaN,NaN,NaN,NaN,NaN,140,153.94,90,0,NaN,14.986,1013,340.38,0.01,0.033903
0.42,2.2446,14.233,45.776,14.233,45.776,0,0,0,0,0,0,45,0,9.8062,7.0853,0,0,0,12089,2403.4,5.6846,0.036817,NaN,1626.7,NaN,0.042137,2622314,673.1,1.1864,0.54973,0.61179,0.36422,0.065283,0.12023,NaN,NaN,NaN,NaN,NaN,NaN,NaN,NaN,140,153.94,90,0,NaN,14.985,1013,340.38,0.01,0.034271
0.43,2.3893,14.691,45.743,14.691,45.743,0,0,0,0,0,0,45,0,9.8062,6.8024,0,0,0,12085,2399.7,5.6834,0.036814,NaN,1626.5,NaN,0.043466,2705017,672.57,1.2542,0.54975,0.60784,0.36421,0.065292,0.12025,NaN,NaN,NaN,NaN,NaN,NaN,NaN,NaN,140,153.94,90,0,NaN,14.984,1013,340.38,0.01,0.03473
0.44,2.5385,15.148,45.71,15.148,45.712,0,0,0,0,0,0.42275,45,0,9.8062,6.5365,0,0,0,12081,2396,5.6822,0.036812,1767.8,1626.4,1.0103,0.044796,2787720,672.04,1.3241,0.54977,0.60417,0.36421,0.065301,0.12026,2.3305,2.3544,-2.6911e-4,0,0.42216,0.42216,0,0,140,153.94,90,0,NaN,14.984,1013,340.38,0.0099208,0.035297
0.44992,2.691,15.602,45.678,15.602,45.68,-2.0884e-5,0,2.0884e-5,-180,0.0042175,0.42724,45,0,9.8062,6.2723,2.0595,0.073224,-1.6711e-5,12078,2392.3,5.681,0.036809,1769.7,1626.3,1.0244,0.046113,2869678,671.52,1.3947,0.54979,0.60058,0.3642,0.06531,0.12028,2.2237,2.2784,-3.4527e-4,0,0.42216,0.42216,0,3.1546e-5,140,153.94,90,0.0081144,NaN,14.983,1012.9,340.38,0.0093614,0.035789
0.45928,2.839,16.03,45.648,16.03,45.65,-7.9284e-5,0,7.9284e-5,180,0.0082802,0.44061,45,0,9.8062,6.1576,4.1145,0.14457,-6.3482e-5,12074,2388.8,5.6799,0.036807,1770.5,1626.2,1.031,0.047367,2947679,671.04,1.4678,0.54981,0.59905,0.3642,0.065319,0.12029,2.1777,2.2451,-3.4424e-4,0,0.42216,0.42216,0,1.1655e-4,140,153.94,89.999,0.015217,NaN,14.982,1012.9,340.38,0.0088718,0.036297
0.46815,2.9831,16.435,45.62,16.435,45.622,-1.7025e-4,0,1.7025e-4,180,0.012244,0.45284,45,0,9.8062,6.0543,6.103,0.2148,-1.9783e-4,12071,2385.4,5.6788,0.036804,1771.2,1626.1,1.0371,0.048555,3021561,670.53,1.5389,0.54983,0.59769,0.3642,0.065328,0.12031,2.1365,2.2155,-1.2872e-4,0,0.34804,0.42217,0.074132,2.4485e-4,140,153.94,89.997,0.027849,NaN,14.981,1012.9,340.38,0.010241,0.036667
0.47839,3.1537,16.902,45.581,16.902,45.584,-3.1962e-4,0,3.1962e-4,180,0.016951,0.46626,45,0,9.8062,5.94,8.0953,0.29905,-5.2887e-4,12067,2381.9,5.6776,0.036802,1772.1,1625.9,1.0437,0.049925,3106792,669.98,1.6228,0.54985,0.5962,0.36419,0.065338,0.12032,2.091,2.182,-4.4972e-4,0,0.32654,0.42217,0.09564,4.4888e-4,140,153.94,89.994,0.051162,NaN,14.98,1012.9,340.38,0.010324,0.036905
0.48872,3.3307,17.373,45.546,17.373,45.548,-5.197e-4,0,5.197e-4,180,0.021832,0.47902,45,-6.6184e-9,9.8062,5.8296,10.086,0.38746,-0.0010909,12063,2378.1,5.6764,0.036799,1772.8,1625.8,1.0503,0.051306,3192650,669.43,1.7097,0.54988,0.59477,0.36419,0.065349,0.12034,2.0473,2.15,2.325e-4,0,0.30622,0.42218,0.11596,7.1355e-4,140,153.94,89.991,0.082331,NaN,14.978,1012.9,340.38,0.010424,0.03714
0.49914,3.5142,17.848,45.51,17.848,45.512,-7.7351e-4,0,7.7351e-4,180,0.026889,0.49104,45,-9.8507e-9,9.8062,5.7226,12.075,0.48033,-0.0019683,12059,2374.2,5.6751,0.036797,1773.6,1625.7,1.0568,0.052699,3279277,668.87,1.7996,0.5499,0.5934,0.36418,0.065361,0.12036,2.0051,2.1182,3.0222e-4,0,0.28702,0.42219,0.13517,0.0010394,140,153.94,89.986,0.12076,NaN,14.977,1012.8,340.38,0.01054,0.037371
0.50968,3.7049,18.327,45.473,18.327,45.476,-0.0010843,9.3747e-9,0.0010843,180,0.032093,0.49566,45,-1.3809e-8,9.8062,5.5559,14.063,0.57746,-0.003245,12056,2370.3,5.6739,0.036794,1774.8,1625.5,1.0664,0.054101,3366448,668.31,1.8898,0.54993,0.59127,0.36417,0.065372,0.12038,1.9396,2.0675,-1.8846e-4,0,0.26884,0.42219,0.15335,0.0014254,140,153.94,89.981,0.16655,NaN,14.976,1012.8,340.37,0.010677,0.037625
0.52036,3.9031,18.813,45.436,18.813,45.439,-0.0014553,2.2182e-8,0.0014553,180,0.037401,0.49849,45,-1.8533e-8,9.8062,5.3888,16.049,0.67856,-0.0050135,12052,2366.4,5.6726,0.036791,1776.1,1625.4,1.0762,0.055519,3454668,667.74,1.9831,0.54995,0.58918,0.36417,0.065384,0.1204,1.8744,2.0158,-2.826e-4,0,0.25165,0.4222,0.17055,0.0018689,140,153.94,89.974,0.21972,NaN,14.975,1012.8,340.37,0.01083,0.037878
0.53119,4.1096,19.305,45.398,19.305,45.401,-0.0018896,4.7672e-8,0.0018896,180,0.04281,0.50001,45,-2.4064e-8,9.8062,5.2264,18.033,0.78382,-0.0073739,12048,2362.4,5.6713,0.036788,1777.3,1625.3,1.0858,0.056958,3544103,667.16,2.08,0.54998,0.58718,0.36416,0.065397,0.12042,1.8115,1.9648,-7.2917e-5,0,0.23539,0.4222,0.18682,0.0023694,140,153.94,89.966,0.28069,NaN,14.973,1012.8,340.37,0.011,0.038128
0.54219,4.3247,19.805,45.36,19.805,45.362,-0.0023908,9.5041e-8,0.0023908,180,0.048313,0.50012,45,-3.0447e-8,9.8062,5.0681,20.017,0.89348,-0.010467,12044,2358.4,5.67,0.036785,1778.5,1625.1,1.0953,0.058418,3634889,666.57,2.1808,0.55001,0.58526,0.36416,0.06541,0.12044,1.7505,1.9143,-2.033e-4,0,0.22001,0.42221,0.2022,0.0029268,140,153.94,89.957,0.34983,NaN,14.972,1012.7,340.37,0.011188,0.038374
0.55338,4.5491,20.312,45.32,20.312,45.323,-0.0029626,1.7844e-7,0.0029626,180,0.053905,0.50066,45,-3.7728e-8,9.8062,4.9291,21.999,1.0078,-0.014392,12039,2354.3,5.6686,0.036783,1779.6,1625,1.1039,0.059903,3727250,665.97,2.2867,0.55004,0.58361,0.36415,0.065423,0.12047,1.6972,1.8704,-2.2965e-5,0,0.20549,0.42222,0.21673,0.0035414,140,153.94,89.946,0.42745,NaN,14.97,1012.7,340.37,0.011391,0.038633
0.56477,4.7834,20.829,45.279,20.829,45.281,-0.0036092,3.1905e-7,0.0036092,179.99,0.059631,0.50438,45,-4.5963e-8,9.8062,4.8287,23.98,1.1279,-0.019315,12035,2350.1,5.6673,0.03678,1780.3,1624.9,1.1106,0.061418,3821426,665.35,2.3989,0.55007,0.58245,0.36414,0.065438,0.12049,1.6589,1.8386,-2.485e-4,0,0.19178,0.42222,0.23045,0.0042194,140,153.94,89.934,0.51384,NaN,14.969,1012.7,340.37,0.01161,0.038881
0.57638,5.0283,21.354,45.22,21.355,45.223,-0.0043356,5.4778e-7,0.0043356,179.99,0.065502,0.50665,45,-5.5213e-8,9.8062,4.7294,25.96,1.2543,-0.0254,12031,2345.9,5.6659,0.036777,1781.2,1624.7,1.1174,0.062961,3917328,664.53,2.5159,0.5501,0.58132,0.36414,0.065453,0.12052,1.6211,1.8061,2.6058e-4,0,0.17885,0.42223,0.24339,0.0049656,140,153.94,89.92,0.60926,NaN,14.967,1012.7,340.37,0.011846,0.039129
0.58822,5.2844,21.89,45.153,21.89,45.156,-0.0051471,9.0899e-7,0.0051471,179.99,0.07151,0.5073,45,-6.5548e-8,9.8062,4.6308,27.939,1.3874,-0.032841,12027,2341.6,5.6645,0.036774,1782,1624.6,1.1243,0.064533,4015058,663.6,2.638,0.55014,0.58021,0.36413,0.065468,0.12054,1.5838,1.7745,2.5735e-4,0,0.16665,0.42224,0.25559,0.0057832,140,153.94,89.905,0.71407,NaN,14.966,1012.6,340.37,0.0121,0.039375
0.60032,5.5526,22.437,45.083,22.437,45.086,-0.0060495,1.4653e-6,0.0060495,179.99,0.077642,0.50578,45,-7.704e-8,9.8062,4.5303,29.917,1.5277,-0.041895,12023,2337.4,5.6631,0.036771,1782.8,1624.4,1.1314,0.066136,4114724,662.65,2.7654,0.55018,0.57909,0.36412,0.065484,0.12057,1.5458,1.7422,2.8859e-4,0,0.15517,0.42225,0.26707,0.006676,140,153.94,89.887,0.8288,NaN,14.964,1012.6,340.37,0.012373,0.039629
0.6127,5.8337,22.995,45.012,22.995,45.014,-0.0070485,2.3042e-6,0.0070485,179.98,0.083798,0.48889,45,-8.9762e-8,9.8062,4.3455,31.894,1.6742,-0.052823,12018,2333,5.6617,0.036768,1784.4,1624.3,1.1435,0.067766,4215984,661.68,2.893,0.55021,0.57705,0.36411,0.065501,0.1206,1.4765,1.6805,4.4606e-4,0,0.14435,0.42226,0.27791,0.007637,140,153.94,89.867,0.95397,NaN,14.962,1012.6,340.37,0.012668,0.039871
0.62537,6.1286,23.565,44.938,23.565,44.941,-0.0081487,3.547e-6,0.0081487,179.98,0.089867,0.46899,45,-1.0377e-7,9.8062,4.1631,33.87,1.8259,-0.065873,12014,2328.5,5.6602,0.036764,1785.9,1624.1,1.1557,0.069432,4319527,660.68,3.0266,0.55025,0.5751,0.36411,0.065519,0.12063,1.4085,1.6188,8.2369e-5,0,0.13419,0.42227,0.28808,0.0086532,140,153.94,89.845,1.0903,NaN,14.96,1012.5,340.36,0.01298,0.040111
0.63835,6.4382,24.148,44.863,24.149,44.865,-0.009354,5.3594e-6,0.009354,179.97,0.095806,0.44583,45,-1.1912e-7,9.8062,3.9829,35.845,1.9829,-0.081362,12009,2324,5.6587,0.036761,1787.5,1624,1.1682,0.071137,4425480,659.66,3.1666,0.55029,0.57323,0.3641,0.065538,0.12066,1.3418,1.5575,1.3614e-4,0,0.12467,0.42228,0.29761,0.0097221,140,153.94,89.82,1.2384,NaN,14.958,1012.5,340.36,0.013309,0.040362
0.65165,6.7636,24.746,44.785,24.746,44.787,-0.010668,7.9664e-6,0.010668,179.96,0.10157,0.41971,45,-1.3585e-7,9.8062,3.8076,37.82,2.1453,-0.099674,12004,2319.3,5.6572,0.036758,1789.1,1623.8,1.1809,0.072883,4533980,658.62,3.3137,0.55034,0.57147,0.36409,0.065557,0.12069,1.2774,1.4976,-3.9182e-5,0,0.11577,0.42228,0.30652,0.010841,140,153.94,89.793,1.3988,NaN,14.956,1012.5,340.36,0.013653,0.041258
0.66531,7.1056,25.357,44.705,25.358,44.707,-0.012093,1.167e-5,0.012093,179.94,0.10712,0.39402,45,-1.54e-7,9.8062,3.6567,39.794,2.3136,-0.12118,12000,2314.5,5.6556,0.036755,1790.6,1623.7,1.1926,0.074674,4645245,657.55,3.4695,0.55038,0.57001,0.36408,0.065578,0.12072,1.2223,1.4457,-1.9825e-4,0,0.10747,0.4223,0.31483,0.012011,140,153.94,89.762,1.5723,NaN,14.954,1012.4,340.36,0.01401,0.042186
0.67932,7.4653,25.984,44.622,25.984,44.624,-0.013631,1.6873e-5,0.013631,179.93,0.11243,0.36441,45,-1.7359e-7,9.8062,3.5064,41.768,2.4882,-0.14639,11995,2309.5,5.654,0.036751,1792.2,1623.5,1.2049,0.076508,4759228,656.45,3.6329,0.55043,0.56861,0.36407,0.065599,0.12076,1.1676,1.3937,3.1613e-4,0,0.099739,0.42231,0.32257,0.013234,140,153.94,89.729,1.7593,NaN,14.951,1012.4,340.36,0.014379,0.042447
0.6937,7.8435,26.626,44.537,26.626,44.538,-0.015285,2.4108e-5,0.015285,179.91,0.11743,0.33056,45,-1.9465e-7,9.8062,3.3563,43.742,2.6691,-0.17581,11990,2304.5,5.6524,0.036747,1793.8,1623.3,1.2179,0.078388,4876017,655.32,3.8044,0.55048,0.56725,0.36406,0.065622,0.1208,1.1133,1.3414,-2.1984e-4,0,0.092558,0.42232,0.32976,0.014507,140,153.94,89.692,1.9606,NaN,14.949,1012.3,340.36,0.01476,0.042715
0.70846,8.2413,27.283,44.449,27.283,44.45,-0.017052,3.4074e-5,0.017052,179.89,0.12202,0.29021,45,-2.1716e-7,9.8062,3.1972,45.716,2.8559,-0.21006,11984,2299.3,5.6507,0.036744,1795.6,1623.1,1.2321,0.080314,4995632,654.16,3.9836,0.55053,0.56586,0.36405,0.065646,0.12084,1.0561,1.2854,-1.2184e-4,0,0.085898,0.42233,0.33643,0.015822,140,153.94,89.651,2.1765,NaN,14.946,1012.3,340.36,0.01515,0.042967
0.72361,8.6598,27.957,44.358,27.957,44.359,-0.018932,4.7681e-5,0.018932,179.86,0.12605,0.24337,45,-2.411e-7,9.8062,3.0313,47.691,3.0478,-0.24987,11979,2294,5.6489,0.03674,1797.6,1623,1.2477,0.082287,5118144,652.97,4.1712,0.55059,0.56447,0.36403,0.065671,0.12088,0.99686,1.227,2.1806e-4,0,0.079739,0.42234,0.3426,0.017166,140,153.94,89.606,2.4077,NaN,14.944,1012.2,340.35,0.015546,0.043216
0.73915,9.0998,28.646,44.265,28.647,44.265,-0.020919,6.6104e-5,0.020919,179.82,0.12942,0.19128,45,-2.664e-7,9.8062,2.8658,49.665,3.244,-0.29601,11974,2288.5,5.6471,0.036736,1799.8,1622.8,1.2643,0.084307,5243623,651.74,4.3681,0.55064,0.56314,0.36402,0.065697,0.12092,0.93808,1.1678,-3.2324e-5,0,0.074057,0.42236,0.3483,0.018526,140,153.94,89.557,2.6547,NaN,14.941,1012.2,340.35,0.015945,0.043464
0.7551,9.5622,29.352,44.168,29.353,44.168,-0.023004,9.0845e-5,0.023005,179.77,0.132,0.14195,45,-2.9296e-7,9.8062,2.7338,51.641,3.4442,-0.3491,11968,2282.9,5.6453,0.036732,1801.8,1622.6,1.2801,0.086379,5372246,650.49,4.577,0.5507,0.56215,0.36401,0.065724,0.12097,0.8913,1.1209,2.5636e-4,0,0.068837,0.42237,0.35353,0.019894,140,153.94,89.503,2.918,NaN,14.938,1012.1,340.35,0.016341,0.04373
0.77144,10.048,30.074,44.068,30.075,44.069,-0.025178,1.238e-4,0.025178,179.72,0.13396,0.10578,45,-3.2064e-7,9.8062,2.6716,53.617,3.6532,-0.4094,11962,2277.1,5.6434,0.036728,1803.4,1622.4,1.2929,0.088503,5504151,649.21,4.8011,0.55077,0.56173,0.364,0.065753,0.12102,0.86884,1.1021,2.3632e-4,0,0.064062,0.42238,0.35832,0.02132,140,153.94,89.445,3.1977,NaN,14.935,1012.1,340.35,0.016725,0.043974
0.78816,10.557,30.812,43.966,30.812,43.966,-0.02743,1.6734e-4,0.027431,179.65,0.13526,0.069839,45,-3.4932e-7,9.8062,2.606,55.595,3.8725,-0.47848,11956,2271.2,5.6415,0.036724,1805.2,1622.2,1.3075,0.090673,5638847,647.9,5.0352,0.55083,0.56129,0.36398,0.065783,0.12107,0.84515,1.082,-4.8874e-5,0,0.059679,0.4224,0.36272,0.022825,140,153.94,89.382,3.4933,NaN,14.931,1012,340.35,0.017103,0.044219
0.80527,11.09,31.564,43.86,31.564,43.861,-0.029749,2.2441e-4,0.029749,179.57,0.13578,0.052684,45,-3.7885e-7,9.8062,2.5358,57.573,4.102,-0.55764,11950,2265.2,5.6395,0.03672,1807.4,1622,1.3242,0.092887,5776255,646.56,5.2795,0.5509,0.56084,0.36397,0.065815,0.12112,0.81976,1.0612,3.993e-4,0,0.055662,0.42241,0.36675,0.024404,140,153.94,89.313,3.8047,NaN,14.928,1011.9,340.35,0.017473,0.044474
0.82274,11.648,32.33,43.752,32.331,43.752,-0.032118,2.9868e-4,0.032119,179.47,0.13536,0.084055,45,-4.0902e-7,9.8062,2.4593,59.553,4.3408,-0.64829,11944,2259,5.6375,0.036716,1809.8,1621.8,1.3434,0.095143,5916276,645.19,5.5339,0.55098,0.56035,0.36395,0.065848,0.12118,0.79218,1.0382,4.4384e-4,0,0.051983,0.42243,0.37045,0.026048,140,153.94,89.239,4.1314,NaN,14.924,1011.9,340.34,0.017832,0.044734
0.84057,12.232,33.111,43.641,33.111,43.642,-0.034518,3.9458e-4,0.03452,179.35,0.13384,0.14302,45,-4.3958e-7,9.8062,2.3791,61.534,4.5882,-0.75203,11938,2252.7,5.6354,0.036711,1812.7,1621.5,1.3653,0.097441,6058813,643.79,5.7989,0.55105,0.55986,0.36394,0.065883,0.12123,0.76327,1.0145,4.5941e-4,0,0.048618,0.42245,0.37383,0.027745,140,153.94,89.158,4.4729,NaN,14.92,1011.8,340.34,0.018177,0.044986
0.85875,12.841,33.904,43.528,33.904,43.528,-0.036924,5.1751e-4,0.036928,179.2,0.13102,0.22407,45,-4.7023e-7,9.8062,2.2627,63.515,4.842,-0.87275,11932,2246.3,5.6333,0.036707,1816.3,1621.3,1.3928,0.099773,6203536,642.37,6.0716,0.55113,0.55914,0.36392,0.065919,0.12129,0.72205,0.97663,8.6682e-4,0,0.045528,0.42247,0.37694,0.029473,140,153.94,89.071,4.8287,NaN,14.917,1011.7,340.34,0.018512,0.045234
0.87726,13.476,34.71,43.411,34.71,43.412,-0.039305,6.7399e-4,0.03931,179.02,0.1264,0.3267,45,-5.0054e-7,9.8062,2.1092,65.498,5.0936,-1.0146,11925,2239.8,5.6311,0.036702,1820.9,1621.1,1.427,0.10214,6350334,640.92,6.3521,0.55121,0.55822,0.3639,0.065956,0.12136,0.66848,0.923,9.3772e-4,0,0.042694,0.42249,0.37979,0.031122,140,153.94,88.978,5.1988,NaN,14.912,1011.7,340.34,0.018836,0.045478
0.8961,14.138,35.528,43.292,35.528,43.294,-0.041618,8.718e-4,0.041627,178.8,0.11975,0.44027,45,-5.3e-7,9.8062,1.9546,67.482,5.3391,-1.1797,11918,2233.1,5.6289,0.036697,1826.2,1620.9,1.4665,0.10454,6499303,639.45,6.6436,0.5513,0.55736,0.36388,0.065995,0.12142,0.61482,0.86911,0.0015173,0,0.040102,0.4225,0.3824,0.032641,140,153.94,88.878,5.583,NaN,14.908,1011.6,340.33,0.019141,0.045741
0.91524,14.826,36.357,43.169,36.357,43.173,-0.043814,0.0011201,0.043828,178.54,0.11077,0.5769,45,-5.5796e-7,9.8062,1.7616,69.466,5.5703,-1.3797,11912,2226.4,5.6267,0.036693,1832.9,1620.6,1.5164,0.10697,6.65e6,637.95,6.943,0.55139,0.55635,0.36386,0.066035,0.12149,0.54884,0.79879,0.0016027,0,0.037719,0.42252,0.38481,0.033934,140,153.94,88.771,5.9811,NaN,14.904,1011.5,340.33,0.019435,0.045983
0.93467,15.54,37.196,43.044,37.196,43.05,-0.045834,0.0014297,0.045856,178.21,0.099132,0.72772,45,-5.8369e-7,9.8062,1.5603,71.452,5.7757,-1.6222,11905,2219.5,5.6244,0.036688,1841.2,1620.4,1.5774,0.10943,6802624,636.43,7.2533,0.55148,0.5554,0.36385,0.066076,0.12156,0.48072,0.72377,0.0028177,0,0.035535,0.42255,0.38701,0.03486,140,153.94,88.657,6.3933,NaN,14.899,1011.4,340.33,0.019712,0.046223
0.95439,16.282,38.045,42.962,38.045,42.971,-0.04761,0.0018131,0.047644,177.82,0.084831,0.88608,45,-6.063e-7,9.8061,1.3732,73.439,5.9461,-1.9141,11898,2212.5,5.6221,0.036683,1851.3,1620.2,1.6508,0.11193,6957010,635.45,7.5761,0.55157,0.55464,0.36383,0.066119,0.12163,0.41778,0.65437,0.0032844,0,0.033535,0.42257,0.38903,0.035322,140,153.94,88.537,6.8194,NaN,14.894,1011.3,340.32,0.019967,0.046471
0.97435,17.05,38.903,42.954,38.903,42.967,-0.049067,0.0022846,0.04912,177.33,0.068485,1.0416,45,-6.2486e-7,9.8061,1.2298,75.427,6.0816,-2.2491,11891,2205.5,5.6198,0.036678,1862.8,1619.9,1.735,0.11445,7113357,635.37,7.9137,0.55167,0.55414,0.3638,0.066164,0.1217,0.36923,0.60501,0.0044287,0,0.031715,0.42259,0.39087,0.03534,140,153.94,88.41,7.2585,NaN,14.889,1011.3,340.32,0.020191,0.046723
0.99454,17.844,39.77,42.946,39.77,42.963,-0.050129,0.0028604,0.050211,176.73,0.051791,1.2074,45,-6.3839e-7,9.8061,1.0878,77.418,6.1641,-2.6568,11884,2198.5,5.6175,0.036673,1877.5,1619.7,1.8417,0.117,7271432,635.3,8.2634,0.55177,0.55372,0.36378,0.06621,0.12178,0.32138,0.55685,0.0069422,0,0.030052,0.42261,0.39256,0.034739,140,153.94,88.278,7.7089,NaN,14.884,1011.2,340.32,0.020388,0.046967
1.0149,18.664,40.646,42.936,40.646,42.959,-0.050715,0.0035586,0.050839,175.99,0.040462,1.4078,45,-6.4585e-7,9.8061,0.88695,79.408,6.1093,-3.2571,11877,2191.5,5.6152,0.036668,1901.2,1619.4,2.0124,0.11957,7430624,635.23,8.6212,0.55188,0.55318,0.36376,0.066258,0.12186,0.25552,0.48139,0.0089921,0,0.02851,0.42264,0.39413,0.032674,140,153.94,88.139,8.1686,NaN,14.879,1011.1,340.32,0.020576,0.047215
1.0355,19.51,41.53,42.923,41.53,42.954,-0.050728,0.0043996,0.050918,175.04,0.04695,1.6264,45,-6.4601e-7,9.8061,0.67551,81.4,5.7574,-4.1579,11870,2184.3,5.6128,0.036663,1940.3,1619.2,2.2935,0.12216,7591120,635.16,8.991,0.55198,0.55275,0.36374,0.066307,0.12194,0.1872,0.40135,0.014267,0,0.027091,0.42266,0.39557,0.027801,140,153.94,87.996,8.636,NaN,14.873,1011,340.31,0.020744,0.047458
1.0563,20.38,42.42,42.909,42.42,42.949,-0.050061,0.0054054,0.050352,173.84,0.072646,1.8485,45,-6.3752e-7,9.8061,0.49274,83.393,4.7475,-5.4696,11862,2177.1,5.6105,0.036658,2003.7,1618.9,2.7481,0.12477,7752935,635.08,9.3748,0.5521,0.5525,0.36371,0.066357,0.12202,0.12887,0.33639,0.023678,0,0.025786,0.42269,0.3969,0.01812,140,153.94,87.848,9.1085,NaN,14.868,1010.9,340.31,0.02089,0.048021
1.0771,21.276,43.317,42.894,43.317,42.943,-0.048606,0.0065987,0.049052,172.27,0.10912,2.0649,45,-6.1899e-7,9.8061,0.36805,85.387,2.3107,-6.9652,11855,2169.9,5.6081,0.036653,2067.7,1618.7,3.207,0.12741,7915916,635.01,9.7724,0.55221,0.55244,0.36369,0.066409,0.12211,0.091142,0.28777,0.037346,0,0.024582,0.42271,0.39813,0.004117,140,153.94,87.697,9.5806,NaN,14.862,1010.8,340.31,0.021016,0.048484
1.0982,22.196,44.218,42.876,44.219,42.937,-0.046256,0.0080043,0.046944,170.18,0.15258,2.282,45,-5.8907e-7,9.8061,0.33527,87.382,-1.8702,-7.1249,11848,2162.6,5.6057,0.036648,1994,1618.4,2.6828,0.13006,8079827,634.94,10.183,0.55233,0.55252,0.36367,0.066463,0.1222,0.088204,0.23879,0.03802,0,0.023463,0.42274,0.39928,-0.0025882,140,153.94,87.543,10.045,NaN,14.856,1010.6,340.3,0.02113,0.048942
1.1193,23.14,45.124,42.858,45.125,42.929,-0.042907,0.0096543,0.04398,167.32,0.20168,2.477,45,-5.4642e-7,9.8061,0.37934,89.378,-3.8467,-6.2378,11840,2155.3,5.6032,0.036643,1915,1618.2,2.1199,0.13273,8245078,634.86,10.608,0.55245,0.55269,0.36364,0.066518,0.12229,0.1071,0.23778,0.027584,0,0.022441,0.42277,0.40033,-0.010514,140,153.94,87.389,10.504,NaN,14.85,1010.5,340.3,0.021212,0.049392
1.1405,24.106,46.034,42.838,46.034,42.921,-0.038466,0.011583,0.040172,163.24,0.25565,2.6739,45,-4.8986e-7,9.8061,0.44162,91.374,-4.9577,-5.2916,11833,2147.9,5.6008,0.036637,1867.2,1617.9,1.7806,0.13541,8410949,634.79,11.044,0.55257,0.5529,0.36361,0.066574,0.12238,0.13052,0.24869,0.019325,0,0.021481,0.4228,0.40131,-0.016779,140,153.94,87.236,10.959,NaN,14.843,1010.4,340.29,0.02129,0.049828
1.1618,25.096,46.946,42.817,46.947,42.913,-0.032838,0.013829,0.035631,157.16,0.31428,2.8669,45,-4.1819e-7,9.8061,0.50768,93.371,-5.5038,-4.5487,11826,2140.5,5.5983,0.036632,1842.8,1617.7,1.6081,0.1381,8577426,634.71,11.491,0.5527,0.55313,0.36359,0.066632,0.12248,0.1538,0.26692,0.013859,0,0.020579,0.42282,0.40225,-0.019882,140,153.94,87.084,11.416,NaN,14.837,1010.3,340.29,0.021364,0.050229
1.1832,26.109,47.861,42.795,47.862,42.904,-0.025932,0.016431,0.030699,147.64,0.37733,3.0546,45,-3.3024e-7,9.8061,0.57138,95.367,-5.7486,-3.9965,11818,2133.1,5.5959,0.036627,1829.9,1617.4,1.5181,0.1408,8744461,634.64,11.949,0.55283,0.55338,0.36356,0.066691,0.12258,0.17549,0.28765,0.0097248,0,0.019731,0.42285,0.40312,-0.020866,140,153.94,86.935,11.874,NaN,14.83,1010.2,340.29,0.021436,0.050628
1.2046,27.145,48.778,42.77,48.78,42.894,-0.017655,0.019431,0.026254,132.26,0.44473,3.2531,45,-2.2484e-7,9.8061,0.64741,97.364,-5.9445,-3.3723,11811,2125.7,5.5934,0.036622,1820.1,1617.1,1.45,0.14351,8911808,634.56,12.418,0.55296,0.55366,0.36353,0.066752,0.12268,0.20105,0.31342,0.0070844,0,0.018922,0.42288,0.40396,-0.021478,140,153.94,86.789,12.333,NaN,14.824,1010.1,340.28,0.021515,0.051006
1.2261,28.204,49.698,42.742,49.701,42.884,-0.0079052,0.022871,0.024199,109.07,0.51728,3.4956,45,-1.0067e-7,9.8061,0.77587,99.359,-6.1781,-2.3774,11803,2118.2,5.5909,0.036616,1813.9,1616.9,1.4072,0.14622,9079070,634.49,12.899,0.5531,0.5541,0.3635,0.066814,0.12278,0.24295,0.36377,0.0035823,0,0.01814,0.42292,0.40477,-0.02235,140,153.94,86.647,12.792,NaN,14.817,1009.9,340.28,0.021619,0.051393
1.2477,29.288,50.622,42.712,50.626,42.874,0.0034515,0.026804,0.027025,82.662,0.59539,3.7315,45,4.3955e-8,9.8061,0.9041,101.35,-6.1294,-1.6386,11796,2110.7,5.5884,0.036611,1815.7,1616.6,1.4223,0.14894,9247028,634.41,13.394,0.55323,0.55459,0.36347,0.066877,0.12288,0.28315,0.42432,0.0016318,0,0.017408,0.42295,0.40554,-0.021203,140,153.94,86.509,13.253,NaN,14.81,1009.8,340.27,0.021713,0.051769
1.2694,30.398,51.55,42.683,51.554,42.863,0.016531,0.031274,0.035375,62.14,0.6785,3.9186,45,2.1052e-7,9.8061,0.9749,103.35,-5.8688,-1.3177,11788,2103.1,5.5859,0.036606,1818.2,1616.3,1.4419,0.15167,9416109,634.33,13.898,0.55338,0.55495,0.36344,0.066942,0.12299,0.30492,0.45827,0.0011339,0,0.016738,0.42298,0.40624,-0.018744,140,153.94,86.378,13.713,NaN,14.802,1009.7,340.27,0.021774,0.052142
1.2912,31.53,52.479,42.654,52.485,42.85,0.031414,0.036325,0.048024,49.147,0.76573,4.0906,45,4.0005e-7,9.8061,1.0313,105.35,-5.5427,-1.0726,11781,2095.6,5.5834,0.036601,1821,1616.1,1.4637,0.15442,9585614,634.26,14.412,0.55352,0.55528,0.36341,0.067008,0.1231,0.32195,0.48746,0.0010936,0,0.016103,0.42301,0.40691,-0.016129,140,153.94,86.254,14.168,NaN,14.795,1009.6,340.26,0.021835,0.052505
1.313,32.686,53.41,42.627,53.417,42.836,0.048186,0.042002,0.063922,41.077,0.8567,4.228,45,6.1364e-7,9.8061,1.0518,107.35,-5.1501,-0.9717,11773,2088,5.5808,0.036595,1822.4,1615.8,1.476,0.15718,9755783,634.18,14.935,0.55367,0.5555,0.36338,0.067076,0.12321,0.32803,0.49728,5.222e-4,0,0.01551,0.42305,0.40754,-0.013442,140,153.94,86.139,14.612,NaN,14.788,1009.4,340.26,0.021881,0.052863
1.3349,33.865,54.343,42.63,54.351,42.851,0.066906,0.04835,0.082548,35.854,0.95045,4.3389,45,8.5204e-7,9.8061,1.0478,109.35,-4.7254,-0.9585,11766,2080.4,5.5783,0.03659,1822.7,1615.5,1.4799,0.15994,9926434,634.45,15.467,0.55382,0.55564,0.36335,0.067145,0.12333,0.32669,0.4946,7.3894e-5,0,0.014948,0.42308,0.40813,-0.010928,140,153.94,86.033,15.041,NaN,14.78,1009.3,340.26,0.021925,0.053248
1.3569,35.067,55.278,42.713,55.288,42.944,0.087624,0.055415,0.10368,32.31,1.0467,4.4465,45,1.1159e-6,9.8061,1.0436,111.34,-4.292,-0.92974,11758,2072.7,5.5758,0.036585,1823.4,1615.3,1.4865,0.16271,10097383,635.67,16.01,0.55397,0.55578,0.36332,0.067216,0.12344,0.32517,0.49202,2.3243e-4,0,0.014411,0.42312,0.4087,-0.0087114,140,153.94,85.936,15.448,NaN,14.772,1009.1,340.25,0.021974,0.053642
1.3788,36.292,56.216,42.8,56.228,43.042,0.1104,0.063244,0.12723,29.807,1.1454,4.5517,45,1.4059e-6,9.8061,1.0446,113.34,-3.8499,-0.86066,11750,2065,5.5732,0.036579,1825,1615,1.5003,0.1655,10268881,636.93,16.564,0.55413,0.55594,0.36328,0.067288,0.12356,0.32497,0.49434,2.1017e-4,0,0.013906,0.42315,0.40925,-0.0067759,140,153.94,85.848,15.825,NaN,14.764,1009,340.25,0.022013,0.054079
1.4008,37.54,57.159,42.888,57.172,43.138,0.13527,0.071877,0.15318,27.985,1.2465,4.6448,45,1.7226e-6,9.8061,1.0411,115.34,-3.3914,-0.79082,11742,2057.2,5.5706,0.036574,1827.1,1614.7,1.5172,0.16829,10440981,638.2,17.13,0.55429,0.55609,0.36325,0.067362,0.12368,0.32322,0.4957,1.1988e-4,0,0.013431,0.42319,0.40976,-0.0050852,140,153.94,85.771,16.167,NaN,14.756,1008.8,340.24,0.022041,0.054479
1.4229,38.81,58.104,42.968,58.12,43.237,0.16227,0.08135,0.18152,26.626,1.3507,4.8136,45,2.0665e-6,9.8061,1.1187,117.34,-2.9336,-0.45485,11735,2049.4,5.568,0.036568,1839.9,1614.4,1.6105,0.17107,10612203,639.47,17.711,0.55446,0.55652,0.36322,0.067436,0.1238,0.3434,0.55711,2.4222e-4,0,0.012944,0.42323,0.41028,-0.0036824,140,153.94,85.703,16.468,NaN,14.748,1008.7,340.24,0.022133,0.054865
1.445,40.107,59.055,43.05,59.073,43.334,0.19157,0.091728,0.2124,25.586,1.4587,4.9599,45,2.4396e-6,9.8061,1.1847,119.33,-2.3574,-0.20352,11727,2041.6,5.5653,0.036563,1854.5,1614.2,1.7168,0.17386,10784463,640.75,18.306,0.55462,0.55693,0.36318,0.067513,0.12393,0.35891,0.61815,4.9616e-4,0,0.012499,0.42326,0.41076,-0.0023022,140,153.94,85.647,16.723,NaN,14.739,1008.5,340.23,0.02219,0.05528
1.4672,41.428,60.01,43.136,60.031,43.43,0.22321,0.10303,0.24584,24.776,1.5697,5.0447,45,2.8426e-6,9.8061,1.1985,121.33,-1.6858,-0.077247,11719,2033.8,5.5627,0.036557,1865.7,1613.9,1.7989,0.17668,10958026,642.03,18.909,0.55479,0.55716,0.36314,0.067591,0.12406,0.35929,0.647,-4.9291e-4,0,0.012101,0.4233,0.4112,-0.00114,140,153.94,85.605,16.924,NaN,14.731,1008.4,340.23,0.022195,0.055724
1.4894,42.77,60.968,43.225,60.991,43.523,0.25717,0.11524,0.28181,24.138,1.6821,5.0909,45,3.275e-6,9.8061,1.186,123.33,-0.96498,-0.0074626,11711,2025.9,5.5601,0.036552,1876.4,1613.6,1.8771,0.17951,11132100,643.3,19.52,0.55497,0.55729,0.36311,0.067671,0.12419,0.3519,0.66094,1.4056e-4,0,0.011725,0.42334,0.41162,-3.6188e-4,140,153.94,85.577,17.063,NaN,14.722,1008.2,340.22,0.022191,0.056143
1.5116,44.134,61.927,43.317,61.953,43.615,0.29344,0.12838,0.3203,23.629,1.7951,5.0841,45,3.737e-6,9.8061,1.1338,125.34,-0.21204,0.017066,11703,2018.1,5.5575,0.036546,1884.3,1613.3,1.9357,0.18235,11306833,644.58,20.139,0.55515,0.55727,0.36307,0.067753,0.12432,0.33368,0.64556,9.911e-5,0,0.011376,0.42338,0.41201,-1.6934e-5,140,153.94,85.565,17.131,NaN,14.713,1008.1,340.22,0.022166,0.05658
1.5338,45.517,62.887,43.413,62.916,43.703,0.332,0.14243,0.36126,23.219,1.9071,5.0265,45,4.228e-6,9.8061,1.047,127.34,0.52323,0.014597,11695,2010.2,5.5548,0.036541,1889,1613,1.971,0.1852,11482041,645.85,20.765,0.55533,0.55714,0.36303,0.067836,0.12446,0.30642,0.60421,-1.7517e-5,0,0.011044,0.42342,0.41238,9.9966e-5,140,153.94,85.568,17.115,NaN,14.704,1007.9,340.21,0.022135,0.057011
1.5559,46.92,63.848,43.51,63.88,43.791,0.37278,0.15737,0.40464,22.888,2.0174,4.9473,45,4.7473e-6,9.8061,0.95506,129.34,1.2251,-0.0036193,11688,2002.4,5.5522,0.036535,1894.4,1612.8,2.0115,0.18805,11657255,647.13,21.401,0.55551,0.55703,0.36299,0.067921,0.1246,0.27774,0.55793,2.6988e-4,0,0.010717,0.42347,0.41275,5.3161e-4,140,153.94,85.586,17.004,NaN,14.695,1007.7,340.2,0.022124,0.057652
1.578,48.343,64.811,43.607,64.846,43.877,0.41579,0.17321,0.45043,22.616,2.1258,4.8585,45,5.2951e-6,9.8061,0.86747,131.34,1.8958,-0.056414,11680,1994.6,5.5496,0.03653,1903.2,1612.5,2.0764,0.1909,11832438,648.4,22.048,0.5557,0.55696,0.36295,0.068007,0.12474,0.2499,0.5178,-1.4586e-4,0,0.010396,0.42351,0.41311,0.0012353,140,153.94,85.616,16.785,NaN,14.686,1007.6,340.2,0.022131,0.058282
1.6001,49.788,65.776,43.705,65.814,43.962,0.46103,0.18993,0.49862,22.39,2.232,4.746,45,5.8712e-6,9.806,0.76953,133.34,2.5277,-0.13328,11672,1986.7,5.5469,0.036524,1912.6,1612.2,2.1454,0.19375,12008001,649.68,22.706,0.55589,0.55688,0.36291,0.068095,0.12488,0.21948,0.46893,1.8679e-5,0,0.01009,0.42355,0.41346,0.0021318,140,153.94,85.658,16.447,NaN,14.676,1007.4,340.19,0.022136,0.059084
1.6223,51.255,66.744,43.802,66.785,44.047,0.50845,0.20749,0.54915,22.199,2.3359,4.6418,45,6.475e-6,9.806,0.68768,135.34,3.1113,-0.3431,11664,1978.9,5.5443,0.036519,1931.8,1611.9,2.2846,0.19661,12183418,650.95,23.376,0.55608,0.55688,0.36287,0.068184,0.12503,0.19252,0.43656,1.8698e-5,0,0.0097847,0.4236,0.41381,0.0031367,140,153.94,85.71,15.98,NaN,14.667,1007.2,340.19,0.022169,0.059792
1.6444,52.745,67.715,43.899,67.759,44.131,0.55807,0.22585,0.60204,22.033,2.4374,4.5186,45,7.107e-6,9.806,0.59687,137.34,3.6398,-0.63565,11656,1971.1,5.5417,0.036513,1954.7,1611.6,2.4507,0.19947,12359399,652.23,24.058,0.55628,0.55688,0.36283,0.068274,0.12517,0.1635,0.39698,6.0837e-4,0,0.0094975,0.42364,0.41414,0.0041704,140,153.94,85.771,15.374,NaN,14.657,1007.1,340.18,0.022188,0.060725
1.6666,54.258,68.689,43.998,68.736,44.212,0.60984,0.24495,0.65719,21.884,2.5357,4.3421,45,7.7663e-6,9.806,0.46563,139.34,4.1149,-0.80513,11648,1963.2,5.539,0.036508,1967.9,1611.4,2.5468,0.20236,12536470,653.5,24.753,0.55648,0.55685,0.36279,0.068367,0.12532,0.12584,0.31525,9.7965e-5,0,0.0092406,0.42369,0.41445,0.0051796,140,153.94,85.839,14.623,NaN,14.647,1006.9,340.18,0.02216,0.062183
1.6888,55.791,69.664,44.098,69.714,44.293,0.66357,0.26467,0.71441,21.745,2.6295,4.144,45,8.4505e-6,9.806,0.32027,141.34,4.4821,-0.89887,11641,1955.4,5.5364,0.036502,1975.6,1611.1,2.6041,0.20525,12713835,654.78,25.461,0.55668,0.55686,0.36275,0.068462,0.12548,0.085796,0.2176,2.0811e-4,0,0.008992,0.42373,0.41474,0.0059734,140,153.94,85.912,13.727,NaN,14.637,1006.7,340.17,0.022136,0.062678
1.7109,57.344,70.641,44.205,70.693,44.382,0.7192,0.28494,0.77359,21.613,2.7187,3.9618,45,9.1589e-6,9.806,0.18771,143.34,4.6523,-1.2506,11633,1947.6,5.5337,0.036497,1996.7,1610.8,2.7563,0.20814,12891039,656.16,26.183,0.55689,0.55695,0.3627,0.068557,0.12563,0.04929,0.12995,5.6698e-4,0,0.0087408,0.42378,0.41504,0.0062586,140,153.94,85.986,12.688,NaN,14.627,1006.5,340.16,0.022145,0.063233
1.7331,58.919,71.62,44.412,71.674,44.576,0.77673,0.30569,0.83472,21.483,2.804,3.811,45,9.8916e-6,9.806,0.074529,145.34,3.9525,-2.9782,11625,1939.6,5.5311,0.036491,2069.6,1610.5,3.2794,0.21103,13068359,658.76,26.918,0.5571,0.55711,0.36266,0.068655,0.12579,0.018395,0.055584,0.0023703,0,0.008496,0.42383,0.41533,0.0043945,140,153.94,86.058,11.519,NaN,14.617,1006.3,340.16,0.022164,0.064082
1.7552,60.518,72.604,44.647,72.661,44.799,0.83614,0.32684,0.89775,21.35,2.8858,3.6788,45,1.0648e-5,9.806,0.068553,147.34,-4.3474,-2.3843,11617,1931.5,5.5283,0.036485,1837.5,1610.2,1.6236,0.21394,13246601,661.68,27.671,0.55732,0.55733,0.36261,0.068754,0.12595,0.02079,0.039248,0.0015579,0,0.0082734,0.42388,0.41561,-0.0051733,140,153.94,86.125,10.242,NaN,14.607,1006.2,340.15,0.022146,0.064546
1.7774,62.136,73.593,44.881,73.653,45.021,0.89728,0.34825,0.96249,21.212,2.9639,3.5472,45,1.1427e-5,9.806,0.17615,149.34,-4.8316,-0.20172,11608,1923.2,5.5255,0.036479,1925.3,1609.9,2.253,0.21686,13425677,664.6,28.44,0.55754,0.55759,0.36257,0.068855,0.12611,0.049256,0.11716,1.8487e-4,0,0.0080694,0.42393,0.41586,-0.0062188,140,153.94,86.185,8.8896,NaN,14.596,1006,340.14,0.022099,0.064933
1.7995,63.774,74.585,45.112,74.647,45.243,0.96001,0.3698,1.0288,21.067,3.0384,3.4448,45,1.2226e-5,9.806,0.28172,151.35,-4.5576,0.40613,11600,1915,5.5227,0.036474,1956.5,1609.6,2.4776,0.21979,13605199,667.52,29.224,0.55776,0.5579,0.36252,0.068958,0.12628,0.076747,0.19555,4.0638e-4,0,0.0078752,0.42398,0.4161,-0.0053872,140,153.94,86.235,7.5092,NaN,14.585,1005.8,340.14,0.022045,0.065348
1.8215,65.429,75.579,45.336,75.643,45.465,1.0243,0.39136,1.0965,20.911,3.1102,3.4138,45,1.3044e-5,9.806,0.36238,153.35,-4.186,0.34014,11592,1906.7,5.5199,0.036468,1951.5,1609.3,2.4439,0.22272,13784509,670.43,30.02,0.55799,0.55821,0.36247,0.069063,0.12645,0.099293,0.24718,-1.7882e-4,0,0.0076769,0.42403,0.41635,-0.004426,140,153.94,86.275,6.1533,NaN,14.575,1005.6,340.13,0.022024,0.065791
1.8436,67.104,76.578,45.558,76.644,45.686,1.0901,0.41288,1.1657,20.744,3.1804,3.4135,45,1.3882e-5,9.806,0.43155,155.35,-3.7148,0.33699,11584,1898.5,5.5171,0.036462,1950.3,1609,2.4378,0.22566,13964449,673.33,30.829,0.55822,0.55853,0.36243,0.069169,0.12662,0.11851,0.29238,-2.925e-4,0,0.0074915,0.42408,0.41659,-0.0033954,140,153.94,86.303,4.8738,NaN,14.564,1005.4,340.12,0.021985,0.066201
1.8655,68.799,77.579,45.78,77.647,45.904,1.1575,0.43425,1.2363,20.564,3.249,3.3733,45,1.474e-5,9.806,0.5022,157.36,-3.0825,0.69926,11575,1890.3,5.5143,0.036456,1976.8,1608.7,2.6289,0.22863,14145737,676.23,31.658,0.55845,0.55888,0.36238,0.069278,0.1268,0.13491,0.35718,-2.763e-4,0,0.0073342,0.42414,0.4168,-0.0022778,140,153.94,86.32,3.7252,NaN,14.553,1005.2,340.12,0.021879,0.072716
1.8874,70.507,78.581,46,78.651,46.121,1.2261,0.45533,1.3079,20.373,3.3154,3.3302,45,1.5615e-5,9.806,0.56368,159.36,-2.2615,1.033,11567,1882.1,5.5116,0.03645,2005.6,1608.4,2.8368,0.23159,14327302,679.11,32.499,0.55869,0.55923,0.36233,0.069389,0.12697,0.1479,0.42102,-1.0235e-4,0,0.0071793,0.42419,0.41701,-0.0011949,140,153.94,86.327,2.7662,NaN,14.542,1005,340.11,0.021783,0.073148
1.9092,72.23,79.583,46.214,79.655,46.336,1.296,0.47607,1.3807,20.169,3.3802,3.3527,45,1.6505e-5,9.806,0.59221,161.36,-1.3778,1.1444,11559,1873.9,5.5088,0.036445,2016.7,1608.1,2.9184,0.23455,14508250,681.99,33.346,0.55893,0.55953,0.36228,0.0695,0.12715,0.15402,0.44947,-3.4212e-4,0,0.0070083,0.42425,0.41724,-4.3241e-4,140,153.94,86.322,2.0477,NaN,14.531,1004.8,340.1,0.021756,0.073574
1.931,73.972,80.588,46.423,80.662,46.551,1.3674,0.4965,1.4548,19.955,3.4461,3.4512,45,1.7414e-5,9.806,0.58453,163.36,-0.55077,1.1223,11551,1865.8,5.506,0.036439,2011.9,1607.8,2.886,0.23751,14688929,684.86,34.2,0.55917,0.55976,0.36223,0.069614,0.12733,0.15265,0.4404,-4.4735e-4,0,0.0068343,0.4243,0.41747,-6.7388e-5,140,153.94,86.307,1.6043,NaN,14.519,1004.6,340.1,0.021759,0.074296
1.9527,75.737,81.598,46.631,81.674,46.766,1.4404,0.51662,1.5303,19.731,3.514,3.5461,45,1.8344e-5,9.806,0.56347,165.37,0.28524,1.1175,11543,1857.7,5.5032,0.036433,2010.1,1607.5,2.8759,0.24049,14870561,687.73,35.067,0.55942,0.55996,0.36217,0.069729,0.12752,0.14733,0.42346,2.1979e-5,0,0.0066778,0.42436,0.41768,1.7631e-5,140,153.94,86.285,1.4533,NaN,14.508,1004.4,340.09,0.021722,0.074795
1.9744,77.52,82.611,46.842,82.689,46.977,1.5149,0.53638,1.6071,19.497,3.5834,3.5592,45,1.9293e-5,9.806,0.53911,167.37,1.2388,1.0438,11535,1849.5,5.5005,0.036428,2030.7,1607.2,3.0251,0.24349,15053727,690.59,35.953,0.55968,0.56017,0.36212,0.069847,0.12771,0.13853,0.41874,1.6662e-4,0,0.006547,0.42442,0.41787,3.244e-4,140,153.94,86.258,1.5995,NaN,14.496,1004.2,340.08,0.021615,0.076489
1.9961,79.317,83.623,47.049,83.703,47.185,1.5907,0.55575,1.685,19.258,3.6537,3.5749,45,2.0258e-5,9.806,0.49699,169.38,2.1751,0.86774,11527,1841.4,5.4977,0.036422,2048.9,1606.9,3.1571,0.24649,15236751,693.44,36.849,0.55993,0.56036,0.36207,0.069967,0.1279,0.12575,0.39646,-5.2296e-4,0,0.0064112,0.42447,0.41806,9.7598e-4,140,153.94,86.226,2.0369,NaN,14.484,1003.9,340.08,0.02154,0.077352
2.0176,81.129,84.637,47.255,84.718,47.392,1.6679,0.5748,1.7641,19.016,3.7253,3.6047,45,2.124e-5,9.8059,0.4365,171.38,3.0366,0.60466,11519,1833.4,5.495,0.036416,2062.1,1606.6,3.2531,0.24949,1.542e7,696.28,37.755,0.56019,0.56052,0.36201,0.070088,0.12809,0.10919,0.35298,-3.4072e-4,0,0.0062728,0.42453,0.41826,0.0018568,140,153.94,86.191,2.7466,NaN,14.473,1003.7,340.07,0.02149,0.077792
2.0391,82.959,85.652,47.458,85.736,47.598,1.7465,0.59361,1.8446,18.772,3.7989,3.643,45,2.2241e-5,9.8059,0.36195,173.38,3.7804,0.19464,11511,1825.3,5.4922,0.036411,2070.1,1606.3,3.3125,0.25249,15603060,699.11,38.673,0.56046,0.56068,0.36196,0.070211,0.12829,0.089872,0.29476,3.2443e-4,0,0.0061374,0.42459,0.41846,0.0028098,140,153.94,86.153,3.6967,NaN,14.461,1003.5,340.06,0.021445,0.078245
2.0605,84.806,86.669,47.659,86.756,47.802,1.8266,0.61226,1.9265,18.531,3.8745,3.6981,45,2.3262e-5,9.8059,0.27562,175.39,4.3345,-0.40268,11503,1817.3,5.4895,0.036405,2067.6,1606,3.2968,0.2555,15786601,701.94,39.605,0.56073,0.56086,0.3619,0.070337,0.12849,0.068492,0.2225,-3.7821e-4,0,0.0060033,0.42466,0.41865,0.0036075,140,153.94,86.112,4.8434,NaN,14.449,1003.3,340.05,0.021412,0.07867
2.0819,86.673,87.69,47.857,87.779,48.006,1.9083,0.63087,2.0099,18.293,3.9526,3.7702,45,2.4302e-5,9.8059,0.18318,177.39,4.5392,-1.4071,11495,1809.3,5.4868,0.036399,2038.8,1605.7,3.0931,0.25852,1.597e7,704.77,40.551,0.561,0.56106,0.36185,0.070464,0.12869,0.046541,0.13993,5.6962e-4,0,0.0058727,0.42472,0.41884,0.0038646,140,153.94,86.069,6.1333,NaN,14.437,1003.1,340.05,0.021381,0.079092
2.1033,88.559,88.713,47.974,88.804,48.128,1.9916,0.64954,2.0949,18.063,4.0331,3.8467,45,2.5363e-5,9.8059,0.098265,179.39,3.4717,-3.5324,11487,1801.3,5.484,0.036394,1915.2,1605.4,2.2124,0.26155,16154647,706.68,41.514,0.56127,0.56129,0.36179,0.070593,0.12889,0.027759,0.058954,0.0026731,0,0.0057443,0.42478,0.41904,0.0022087,140,153.94,86.026,7.5067,NaN,14.424,1002.9,340.04,0.021358,0.079565
2.1247,90.465,89.737,47.879,89.831,48.046,2.0766,0.66839,2.1815,17.842,4.1166,4.0041,45,2.6445e-5,9.8059,0.065176,181.39,-3.4593,-3.5715,11478,1793.3,5.4813,0.036388,1948.9,1605.1,2.4555,0.26457,16338322,706.22,42.489,0.56155,0.56156,0.36173,0.070723,0.1291,0.017854,0.045913,0.002139,0,0.0056056,0.42484,0.41924,-0.0021434,140,153.94,85.984,8.9091,NaN,14.412,1002.6,340.03,0.021391,0.079826
2.1461,92.395,90.761,47.774,90.858,47.953,2.1635,0.6876,2.2701,17.631,4.2039,4.1486,45,2.7552e-5,9.8059,0.15253,183.39,-4.7387,-0.58127,11470,1785.1,5.4785,0.036382,2074.3,1604.8,3.3536,0.26758,16521873,705.64,43.478,0.56184,0.56188,0.36167,0.070855,0.12931,0.037652,0.13044,-1.9195e-4,0,0.0054629,0.42491,0.41945,-0.0039318,140,153.94,85.946,10.292,NaN,14.399,1002.4,340.02,0.02146,0.080059
2.1675,94.354,91.786,47.67,91.886,47.859,2.2525,0.70732,2.3609,17.433,4.2939,4.2389,45,2.8685e-5,9.8059,0.24171,185.38,-4.3586,-0.18576,11462,1776.8,5.4756,0.036376,2072,1604.5,3.3392,0.27061,16706085,705.05,44.485,0.56212,0.56222,0.36161,0.070989,0.12952,0.05987,0.20279,9.7974e-5,0,0.0053289,0.42497,0.41964,-0.0032524,140,153.94,85.913,11.598,NaN,14.387,1002.2,340.02,0.021511,0.080303
2.189,96.339,92.811,47.568,92.915,47.762,2.3436,0.72766,2.454,17.249,4.3854,4.3066,45,2.9846e-5,9.8059,0.31723,187.38,-3.7707,-0.02455,11454,1768.6,5.4728,0.036371,2068.7,1604.2,3.3179,0.27365,1.689e7,704.47,45.507,0.56241,0.56259,0.36155,0.071125,0.12973,0.078887,0.26381,3.0421e-4,0,0.0051934,0.42504,0.41985,-0.0023806,140,153.94,85.887,12.772,NaN,14.374,1002,340.01,0.021587,0.080542
2.2106,98.354,93.838,47.465,93.944,47.665,2.4369,0.74876,2.5493,17.08,4.478,4.3653,45,3.1034e-5,9.8059,0.37643,189.38,-3.0201,0.15297,11445,1760.3,5.4699,0.036365,2063.6,1603.9,3.2835,0.27668,17074729,703.88,46.541,0.56271,0.56295,0.36149,0.071263,0.12995,0.094096,0.31059,-2.9062e-4,0,0.0050558,0.42511,0.42005,-0.0014939,140,153.94,85.869,13.764,NaN,14.361,1001.7,340,0.021692,0.080778
2.2323,100.4,94.867,47.361,94.977,47.566,2.5326,0.77074,2.6472,16.927,4.5717,4.4098,45,3.2252e-5,9.8059,0.41637,191.37,-2.1369,0.31599,11437,1752,5.4671,0.036359,2056,1603.6,3.2317,0.27972,17259355,703.29,47.589,0.56301,0.56331,0.36143,0.071404,0.13017,0.1048,0.33942,1.825e-4,0,0.0049208,0.42517,0.42025,-7.3181e-4,140,153.94,85.859,14.532,NaN,14.347,1001.5,339.99,0.021807,0.081009
2.2541,102.48,95.899,47.258,96.013,47.464,2.6306,0.79369,2.7478,16.789,4.6661,4.4186,45,3.3501e-5,9.8059,0.435,193.37,-1.1725,0.40143,11429,1743.6,5.4642,0.036353,2048.8,1603.3,3.182,0.28278,17444536,702.7,48.65,0.56331,0.56364,0.36137,0.071546,0.1304,0.11019,0.35067,3.3471e-4,0,0.0047919,0.42524,0.42045,-2.156e-4,140,153.94,85.857,15.044,NaN,14.334,1001.2,339.99,0.021914,0.08124
2.276,104.59,96.935,47.157,97.052,47.359,2.7311,0.81767,2.8509,16.667,4.7602,4.3702,45,3.478e-5,9.8059,0.43243,195.36,-0.18215,0.41234,11420,1735.2,5.4613,0.036347,2046.5,1603,3.1678,0.28584,1.763e7,702.11,49.725,0.56362,0.56394,0.3613,0.071691,0.13062,0.10976,0.34782,-1.658e-4,0,0.0046706,0.42531,0.42064,-5.0922e-6,140,153.94,85.862,15.272,NaN,14.32,1001,339.98,0.022006,0.08148
2.298,106.74,97.972,47.057,98.093,47.253,2.8339,0.84267,2.9565,16.56,4.8534,4.2954,45,3.6089e-5,9.8059,0.40945,197.36,0.8019,0.40771,11412,1726.7,5.4584,0.036341,2044.6,1602.6,3.1565,0.28892,17816612,701.51,50.813,0.56393,0.56422,0.36124,0.071837,0.13085,0.10407,0.32796,-1.9239e-4,0,0.0045503,0.42538,0.42083,9.6613e-5,140,153.94,85.872,15.198,NaN,14.306,1000.7,339.97,0.022112,0.081715
2.3202,108.92,99.013,46.957,99.136,47.143,2.939,0.86872,3.0647,16.467,4.9452,4.1835,45,3.7429e-5,9.8059,0.36947,199.35,1.7236,0.42961,11403,1718.3,5.4555,0.036335,2048,1602.3,3.1835,0.292,18003401,700.91,51.915,0.56425,0.56448,0.36118,0.071987,0.13108,0.093601,0.29779,4.7204e-4,0,0.0044358,0.42546,0.42102,4.3696e-4,140,153.94,85.883,14.821,NaN,14.292,1000.5,339.96,0.022208,0.081941
2.3424,111.13,100.06,46.856,100.18,47.032,3.0465,0.89575,3.1755,16.385,5.0354,4.0675,45,3.8797e-5,9.8059,0.3146,201.35,2.5498,0.50017,11395,1709.7,5.4525,0.036329,2054,1602,3.2287,0.29509,18190504,700.31,53.03,0.56457,0.56474,0.36111,0.072138,0.13132,0.079259,0.25538,3.5958e-4,0,0.0043225,0.42553,0.42121,9.3646e-4,140,153.94,85.892,14.153,NaN,14.278,1000.2,339.95,0.022317,0.082166
2.3647,113.37,101.1,46.75,101.23,46.92,3.1564,0.92372,3.2888,16.312,5.1245,3.9938,45,4.0196e-5,9.8059,0.24249,203.34,3.2527,0.53379,11386,1701.2,5.4496,0.036323,2057.2,1601.7,3.254,0.29819,18377690,699.7,54.159,0.56489,0.565,0.36104,0.072292,0.13156,0.060878,0.19641,-1.9592e-4,0,0.0042066,0.4256,0.4214,0.0014925,140,153.94,85.895,13.232,NaN,14.263,999.95,339.94,0.02246,0.082391
2.3871,115.65,102.15,46.639,102.28,46.807,3.2688,0.95257,3.4048,16.247,5.2136,3.9678,45,4.1628e-5,9.8058,0.15747,205.33,3.7593,0.61169,11378,1692.6,5.4466,0.036317,2061.7,1601.4,3.2884,0.3013,18565374,699.09,55.305,0.56522,0.56527,0.36097,0.072447,0.1318,0.039346,0.12792,-4.7905e-4,0,0.0040951,0.42568,0.42158,0.0019528,140,153.94,85.887,12.119,NaN,14.248,999.69,339.93,0.0226,0.082624
2.4097,117.97,103.2,46.52,103.34,46.694,3.3839,0.98218,3.5236,16.185,5.3036,4.0351,45,4.3094e-5,9.8058,0.05513,207.33,4.0953,0.10544,11369,1683.9,5.4436,0.036311,2044.3,1601,3.1662,0.30441,18753151,698.47,56.466,0.56556,0.56556,0.36091,0.072605,0.13205,0.013952,0.041565,-3.8123e-4,0,0.0039796,0.42575,0.42178,0.0022705,140,153.94,85.868,10.897,NaN,14.233,999.41,339.92,0.022786,0.082856
2.4325,120.34,104.26,46.391,104.4,46.582,3.502,1.0125,3.6454,16.125,5.3975,4.2143,45,4.4598e-5,9.8058,0.072241,209.32,-3.5348,-2.0554,11360,1675.2,5.4406,0.036305,2068.4,1600.7,3.3406,0.30752,18941210,697.85,57.647,0.5659,0.56591,0.36084,0.072766,0.13229,0.017937,0.061664,4.8957e-4,0,0.0038671,0.42583,0.42196,-0.0016575,140,153.94,85.839,9.6626,NaN,14.218,999.14,339.91,0.022978,0.083084
2.4555,122.75,105.33,46.261,105.47,46.468,3.6233,1.0434,3.7705,16.064,5.4956,4.3869,45,4.6142e-5,9.8058,0.17418,211.31,-3.5683,-1.1134,11352,1666.4,5.4375,0.036299,2071.7,1600.4,3.3664,0.31067,19130664,697.23,58.855,0.56624,0.56629,0.36077,0.072929,0.13255,0.043211,0.147,4.2322e-4,0,0.0037706,0.42591,0.42214,-0.0016551,140,153.94,85.805,8.5148,NaN,14.202,998.85,339.91,0.023095,0.083312
2.4786,125.19,106.4,46.171,106.54,46.386,3.7475,1.0746,3.8985,16,5.596,4.4608,45,4.7724e-5,9.8058,0.22746,213.31,-3.1452,-0.23994,11343,1657.5,5.4345,0.036293,2035.9,1600,3.1136,0.31384,19321723,697,60.087,0.56659,0.56668,0.36069,0.073096,0.1328,0.058149,0.18219,3.5084e-4,0,0.003688,0.42599,0.4223,-0.0012601,140,153.94,85.769,7.5395,NaN,14.186,998.57,339.9,0.02314,0.083542
2.5017,127.67,107.46,46.438,107.62,46.662,3.8744,1.106,4.0291,15.932,5.6972,4.5665,45,4.934e-5,9.8058,0.26923,215.31,-2.4365,0.21602,11334,1648.5,5.4314,0.036286,1999.2,1599.7,2.8538,0.31701,19512615,700.84,61.331,0.56695,0.56708,0.36062,0.073265,0.13306,0.071034,0.20336,3.6159e-4,0,0.003599,0.42607,0.42247,-7.4123e-4,140,153.94,85.736,6.7889,NaN,14.17,998.28,339.89,0.023243,0.083773
2.525,130.18,108.54,46.796,108.7,47.036,4.0042,1.1374,4.1626,15.858,5.8015,4.7454,45,5.0993e-5,9.8058,0.31403,217.3,-1.6032,0.28015,11325,1639.3,5.4282,0.03628,1990.7,1599.3,2.7955,0.32019,19704489,705.78,62.597,0.56731,0.56748,0.36055,0.073437,0.13333,0.083533,0.23336,2.5699e-4,0,0.0035178,0.42615,0.42264,-3.1458e-4,140,153.94,85.706,6.2875,NaN,14.154,997.98,339.88,0.023311,0.083998
2.5483,132.72,109.63,47.157,109.79,47.41,4.137,1.1689,4.299,15.778,5.9093,4.8867,45,5.2685e-5,9.8058,0.33697,219.31,-0.66353,0.32115,11315,1629.9,5.4249,0.036273,1981.2,1599,2.7298,0.32342,19898366,710.72,63.889,0.56768,0.56788,0.36047,0.073613,0.1336,0.090425,0.24717,3.7576e-4,0,0.0034549,0.42624,0.42278,-5.282e-5,140,153.94,85.686,6.0488,NaN,14.137,997.68,339.87,0.023268,0.084226
2.5716,135.28,110.73,47.526,110.89,47.776,4.2722,1.2002,4.4376,15.692,6.0187,4.8863,45,5.4406e-5,9.8058,0.3127,221.32,0.29017,0.33947,11306,1620.5,5.4216,0.036267,1950.6,1598.6,2.5143,0.32667,20094232,715.63,65.204,0.56806,0.56823,0.36039,0.073793,0.13387,0.086168,0.21688,4.5588e-4,0,0.0034093,0.42632,0.42291,9.9018e-6,140,153.94,85.677,6.0642,NaN,14.121,997.38,339.86,0.023114,0.084454
2.5947,137.85,111.83,47.894,112,48.136,4.4091,1.2312,4.5778,15.602,6.1269,4.8225,45,5.615e-5,9.8058,0.26812,223.32,1.1059,0.24189,11296,1611.1,5.4183,0.03626,1916.9,1598.3,2.2761,0.32994,2.029e7,720.52,66.532,0.56844,0.56857,0.36032,0.073975,0.13415,0.076124,0.17277,5.2624e-5,0,0.0033598,0.42641,0.42305,1.41e-4,140,153.94,85.68,6.2969,NaN,14.104,997.08,339.85,0.022996,0.084691
2.6177,140.44,112.93,48.254,113.1,48.494,4.5479,1.262,4.7197,15.509,6.2342,4.8214,45,5.7917e-5,9.8058,0.23618,225.33,1.7526,0.22573,11287,1601.8,5.4151,0.036253,1913.1,1597.9,2.2513,0.33319,20485655,725.4,67.872,0.56883,0.56893,0.36024,0.074159,0.13443,0.067273,0.15092,-2.2662e-4,0,0.0032957,0.4265,0.4232,3.4726e-4,140,153.94,85.694,6.7002,NaN,14.087,996.78,339.84,0.02299,0.084916
2.6407,143.05,114.04,48.614,114.22,48.851,4.6891,1.2928,4.8641,15.413,6.3424,4.8071,45,5.9716e-5,9.8058,0.2018,227.33,2.3262,0.28431,11278,1592.5,5.4119,0.036247,1920.6,1597.5,2.3072,0.33646,20682023,730.27,69.235,0.56922,0.56929,0.36016,0.074347,0.13472,0.057072,0.13156,5.828e-5,0,0.0032385,0.42659,0.42335,5.9997e-4,140,153.94,85.719,7.2367,NaN,14.07,996.47,339.83,0.022946,0.085155
2.6636,145.68,115.15,48.982,115.33,49.203,4.8327,1.3235,5.0106,15.316,6.4498,4.6643,45,6.1544e-5,9.8058,0.13595,229.34,2.811,0.093531,11268,1583.2,5.4086,0.03624,1904.6,1597.2,2.1959,0.33976,2.088e7,735.12,70.623,0.56962,0.56965,0.36008,0.074538,0.13501,0.038984,0.084365,3.023e-4,0,0.0031963,0.42668,0.42348,8.592e-4,140,153.94,85.756,7.8664,NaN,14.053,996.16,339.82,0.022802,0.085384
2.6864,148.32,116.27,49.351,116.46,49.549,4.9777,1.3543,5.1586,15.22,6.5525,4.4265,45,6.3391e-5,9.8057,0.052272,231.35,2.8931,-0.94226,11259,1574,5.4054,0.036234,1839.3,1596.8,1.7321,0.34308,21078900,739.94,72.033,0.57003,0.57003,0.35999,0.074733,0.1353,0.015935,0.026665,5.4947e-4,0,0.0031523,0.42677,0.42362,8.927e-4,140,153.94,85.802,8.5348,NaN,14.036,995.86,339.8,0.02268,0.085618
2.7091,150.97,117.39,49.715,117.58,49.893,5.1242,1.3851,5.3081,15.126,6.6495,4.2144,45,6.5256e-5,9.8057,0.035256,233.35,-2.4074,-1.8846,11250,1564.8,5.4022,0.036227,2051.9,1596.5,3.2532,0.34639,21277618,744.74,73.462,0.57044,0.57044,0.35991,0.074929,0.1356,0.0088891,0.029576,1.3894e-5,0,0.0031006,0.42686,0.42376,-6.0638e-4,140,153.94,85.852,9.1895,NaN,14.019,995.54,339.79,0.022621,0.085848
2.7317,153.63,118.51,50.074,118.71,50.237,5.2725,1.4162,5.4593,15.035,6.7425,4.0368,45,6.7144e-5,9.8057,0.087925,235.35,-2.8373,-0.45647,11241,1555.6,5.399,0.036221,1925.2,1596.1,2.3503,0.34972,21476702,749.53,74.911,0.57085,0.57087,0.35983,0.075129,0.1359,0.024743,0.058532,2.875e-4,0,0.0030479,0.42696,0.42391,-8.2636e-4,140,153.94,85.904,9.7905,NaN,14.001,995.23,339.78,0.02258,0.086072
